,village,village_id,project_code,lat,long
0,Buzi,36050201,1014107,-2.42056,28.9662
1,Buzi,36050201,1014106,-2.42486,28.95726
2,Gipfundo,41040304,1007651,-1.72053,30.08124
3,,,1012493,-1.65595,30.078840000000003
4,Gisizi,28030402,1014318,-1.870868,29.877686
5,Ruheka,28030405,1014319,-1.883957,29.850548
6,Raro,28070106,1014327,-1.896261,29.951448
7,Kinkeri,28020104,1014324,-1.977729,29.850108
8,Nyenyeri,28020203,1014321,-1.939737,29.843622
9,Karama,28010103,1014325,-1.980126,29.905502
10,Bunyonga,28020201,1014323,-1.939927,29.818313
11,Bunyonga,28020201,1014322,-1.934919,29.819397
12,Munyegera,28030102,1014320,-1.915772,29.866533
13,Rugobagoba,28010306,1014326,-2.001263,29.888983000000003
14,Kagarama,28010101,1014328,-1.984548,29.931428000000004
15,Fukwe,28070102,1014329,-1.872181,29.92942
16,Rubare,28110305,1014331,-1.908306,29.881692
17,Rushikiri,28110404,1014330,-1.937733,29.9489
18,,,1014594,-1.7801900000000002,30.14043
19,Kibobo,12030303,1014613,-1.864099,30.233290000000004
20,,,1007653,-1.848168,29.991187
21,Ryamugunga,22100210,1013578,-2.4855,29.84336
22,Rwabiyombe,55010111,1014466,-2.365716,30.542117
23,Rebero,51010203,1014605,-1.893193,30.280679
24,Rugobagoba,51050505,1014461,-2.02333,30.43209
25,Nyagatugunda,55090310,1014470,-2.1496,30.66541
26,Kabonero,51020202,1014611,-1.965611,30.337764
27,Marembo,51100505,1014616,-1.970761,30.232989
28,,,1014604,-1.7196349999999998,30.366374
29,Nyakajuri,57060306,1014599,-2.22393,30.07617
30,Gatare,51050502,1014463,-2.009512,30.421038
31,Rugarama,57060307,1014596,-2.22306,30.056
32,,,1014595,-1.79011,30.13083
33,Nyabaranga,57130503,1014600,-2.29153,30.05912
34,Rugarama,57060307,1014598,-2.2052400000000003,30.078640000000004
35,Kinunga,51100504,1014606,-1.989138,30.263844
36,,,1014467,-2.371645,30.539508
37,Rwayikona,55090512,1014474,-2.164154,30.695954
38,Rwamivu,53130605,1014603,-1.713697,30.358427
39,Rebero,51010203,1014612,-1.896111,30.278146000000003
40,,,1014487,-2.1664,30.78863
41,Kabare,55030403,1014476,-2.332831,30.652159
42,Barisuka,55090501,1014469,-2.208786,30.695041
43,Murama,55010208,1014465,-2.3152,30.470953
44,Gatari,55030402,1014475,-2.3592,30.677613
45,Mugatare,55010409,1014464,-2.296406,30.52359
46,Bugarura,55120302,1014473,-2.17478,30.76704
47,Kabigembe i,55100401,1014468,-2.09732,30.701159000000004
48,Nyarubuye i,55120307,1014462,-2.184027,30.767541
49,Mitsindo,55100205,1014480,-2.7278,30.72778
50,Mitsindo,55100205,1014482,-2.1486,30.72617
51,Rurenge i,55120107,1014485,-2.2107900000000003,30.73431
52,Bingaro,55090101,1014472,-2.18715,30.62265
53,Nyabayama,55120206,1014479,-2.2136,30.77847
54,,,1014486,-2.2099,30.78795
55,Mitsindo,55100205,1014481,-2.1403,30.72741
56,Munini,51050103,1014477,-1.99173,30.448175
57,Saruhembe,55060308,1014483,-2.2318,30.8131
58,Nyagasenyi,55070107,1014484,-2.2073,30.79185
59,Rutaka,51050105,1014478,-1.99518,30.47381
60,Nyamiyaga,22100407,1013577,-2.52882,29.82786
61,,51020704,1014608,-1.918336,30.273599
62,Karambo,51020705,1014607,-1.926646,30.276659
63,Rusayo,36010113,1007661,-2.697308,29.029517
64,Kajevuba,12060403,1014614,-1.84731,29.99128
65,Rwarugaju,51020203,1014610,-1.98212,30.343604
66,Tubumba,57110410,1014597,-2.22306,30.0561
67,Nombe,33100705,1014004,-1.70533,29.30478
68,Gacyamo,36050202,1014108,-2.41855,28.96946
69,Gasumo,36020406,1014109,-2.58868,29.11247
70,Gasumo,36020406,1014104,-2.58744,29.10611
71,Kiziguro,33100607,1014005,-1.70002,29.34484
72,Kanoga,36050702,1014105,-2.42715,28.95369
73,Kigarama,36020408,1014103,-2.55734,29.0933
74,Rukurazo,27090402,1009445,-2.115072,29.700843
75,Kagogo,53010403,1014602,-1.758415,30.255139
76,Rusave,51100208,1014609,-2.013575,30.254667
77,Kinteko,57150102,1014619,-2.261622,29.988408000000003
78,Ruhamagariro,22060408,1013580,-2.5093400000000003,29.90858
79,Rukoni,22100110,1013576,-2.51384,29.88201
80,Gihinga,42130402,1009329,-1.829439,29.882134000000004
81,Gatare,22060501,1013575,-2.49883,29.927
82,Runyinya,22010305,1013579,-2.49034,29.87577000000001
83,Gakomeye,22060101,1013572,-2.40829,29.9468
84,Rebero,22060106,1013571,-2.46509,29.94044
85,Kajevuba,12060403,1007652,-1.857823,29.992177
86,Mugobati,35130304,1007429,-1.9264167,29.5062222
87,Buyoga,27020201,1009296,-1.930371,29.779313
88,Cyuzu,27030201,1009426,-1.85109,29.666005
89,,,1007330,-2.038712,30.18642800000001
90,Gakomeye,22060101,1013573,-2.434,29.93238
91,,,1007428,-1.929636,29.799125
92,,27050207,1007403,-2.076671,29.716686
93,Munyegera,35030404,1007431,-1.8153056,29.578056
94,Nyabiranga,36120205,1007658,-2.396098,28.927481
95,Nyamigende,57020103,1007331,-2.095311,30.245678
96,Gahosha,57150301,1014618,-2.248912,30.019451
97,Mmbo-Kabimba,,1014382,-2.160985,30.551312
98,Yaramba,23080604,1007571,-2.7438056,29.670805600000005
99,Rushwati,36020306,1014169,-2.58421,29.14232
100,Uwinzovu,36030507,1014167,-2.58127,28.15265
101,Munkamba,36020303,1014168,-2.57245,29.15343
102,Rwasaburo,56120306,1014384,-2.157735,30.532793
103,Isangano,52110403,1014387,-1.39413,30.28182
104,Bitare,23080101,1007549,-2.6873400000000003,29.65577
105,Kirwa,23080602,1007544,-2.71578,29.67607000000001
106,,,1014166,-2.44246,28.9333
107,Rwega,36050703,1014165,-2.4334,28.933740000000004
108,Kabeza,52110504,1014389,-1.36432,30.28194
109,Sheke,23080103,1007550,-2.67224,29.65063
110,,,1007654,-2.594639,28.981427000000004
111,Akabaya,56040501,1014388,-2.1866220000000003,30.483668
112,Kabeza,52010104,1014394,-1.40815,30.189856
113,Nyagasharara,52020410,1014391,-1.336893,30.213863
114,Kabaya,52040301,1014397,-1.436156,30.307663
115,Kukimpundu,52020407,1014390,-1.340982,30.219604
116,Cyamunyana,52130702,1014404,-1.163172,30.476046000000004
117,,,1014412,-1.684211,30.350028
118,Kajevuba,52040403,1014398,-1.4428040000000002,30.274319
119,Kagogo,52040402,1014399,-1.471113,30.285693
120,Karubungo,53030305,1014411,-1.633869,30.338833
121,Nyagacyamo,53030307,1014414,-1.6296,30.343077
122,Nyabwongoroka,52050511,1014395,-1.432879,30.133993
123,,,1014407,-1.286986,30.550523
124,Uwinkiko,52120904,1014406,-1.206567,30.347849
125,Cyenjonjo i,52120101,1014405,-1.239774,30.344471
126,Rugenge,56040203,1014421,-2.234163,30.513445
127,Gakirage,52020601,1014416,-1.365045,30.148672
128,,,1014419,-1.576221,30.201582
129,Rugenge,56040203,1014422,-2.2381330000000004,30.513978
130,Nshuri,52140204,1007458,-1.308813,30.314539
131,Gakiri,53030103,1014420,-1.629849,30.379612
132,Mbabe,13080503,1007329,-2.028061,30.173231
133,Cyankongi,13080601,1007328,-2.048451,30.191276
134,Gikana,57020201,1007327,-2.072628,30.204381
135,Gasiza,35050602,1010941,-1.83113,29.62303
136,Rwampara,11090404,1014565,-1.971782,30.063077000000003
137,Kivu,13070403,1014566,-1.98426,30.06329
138,Sanza,35090605,1007420,-1.91351,29.57821
139,Kanyya-Kanyenyeri,,1010406,-1.75995,29.66276667
140,Akabaya,56040501,1014385,-2.181385,30.479072
141,Rwasaburo,56120306,1014383,-2.144405,30.531062
142,Isangano,52020103,1014393,-1.349094,30.202762
143,Kavumu,52020705,1014392,-1.393255,30.162868
144,Byimana i,52060201,1014403,-1.109384,30.433798
145,,,1014400,-1.461997,30.264872
146,Agasasa,52040101,1014401,-1.456525,30.280659000000004
147,Kavumu,52020705,1014396,-1.391233,30.171654
148,Byimana,53140402,1014410,-1.660292,30.461698
149,Bitaba,53110201,1014409,-1.5306879999999998,30.210441
150,Byimana,52060301,1014402,-1.0667870000000002,30.432849
151,Matereza,52020604,1014415,-1.36087,30.181669
152,Bushoga,52100201,1007454,-1.367991,30.288805
153,Nyakagezi,56040105,1014408,-2.229162,30.514947
154,Bwicaro,53110203,1014418,-1.564462,30.194624
155,Byimana,53140402,1014413,-1.658066,30.462945
156,Karama centre,52020704,1014417,-1.397253,30.163373
157,Kamushi,21100502,1012830,-2.33542,29.67251
158,Bweramana,21060102,1012832,-2.3098,29.69524
159,Nyabinyenga,21030305,1012831,-2.31422,29.69336
160,Rambura,33100706,1014006,-1.69435,29.30102
161,Kamanura,36160401,1013926,-2.53862,28.96073
162,Akabacuzi,22070501,1013922,-2.69786,29.90142
163,Kamanura,36160401,1013918,-2.55358,28.95937
164,Kabumbwe,36160102,1013925,-2.55375,28.94637
165,Gasenyi,33100602,1007603,-1.699166,29.336944
166,Nyabikenke,31010104,1013864,-2.07676,29.38212
167,Gisayo,31010204,1013865,-2.06989,29.342
168,Cyarwa,21100501,1007525,-2.3297790000000003,29.668688
169,Nyankunamirwa,21060311,1007523,-2.2801400000000003,29.72578
170,,,1007527,-2.30422,29.65685
171,Kabeza,21030106,1012380,-2.266448,29.647273
172,Rudogo,45110405,1010844,-1.729575,30.231912
173,Mugera,45040102,1010839,-1.506683,30.023419
174,Gatare,45070101,1010840,-1.455716,30.0494
175,Rubindi,45080106,1010849,-1.53941,30.00825
176,Rugaragara,45110103,1010847,-1.701199,30.209405
177,Rugarama,45050106,1010845,-1.7724099999999998,30.22087
178,Gitaba,42100302,1013792,-1.72848,29.76589
179,Nyagasozi,42150405,1013788,-1.72692,29.72306
180,Nyamirambo,45050105,1010846,-1.7613299999999998,30.20837
181,Ntaraga,42030106,1013796,-1.5905,29.7052
182,Cyimbogo,42130901,1013794,-1.81602,29.85876
183,Gapfura,42180203,1013797,-1.62963,29.65738
184,Rugarama,42150205,1013787,-1.68275,29.74224
185,Tongoburo,42030208,1013795,-1.56001,29.69342
186,Gapfura,42180203,1013799,-1.63737,29.65462
187,Gikongoro,42190602,1013801,-1.6969900000000002,29.86647
188,Kivumu,42190103,1013802,-1.72314,29.84565
189,Rugendabare,42030506,1013798,-1.5932,29.70506
190,Kara,42190102,1013800,-1.73494,29.85478
191,Nyakabande,31050107,1015561,-2.11713,29.31672
192,Kazo,32110409,1011307,-1.77286,29.37514
193,Gitovu,31030204,1013868,-2.16278,29.28921
194,Mboneko,31030102,1013872,-2.11586,29.26521
195,Kagarama,31050104,1013867,-2.13838,29.33504000000001
196,Nyarusange-Birambo,,1007392,-2.14811,29.52184
197,Bizitiro,31110301,1013862,-2.19868,29.4931
198,Nyagisozi,31020503,1013876,-2.18942,29.507745
199,Kibaya,31030505,1013871,-2.14492,29.30137
200,Mugeri,32100206,1012457,-2.02408333,29.41472222
201,Butare,35120102,1012823,-2.014133,29.614267
202,Rimbanya,23050102,1007578,-2.6378056,29.5095
203,Gatare,45190503,1010842,-1.621819,30.165954
204,Gatobotobo,45060301,1010843,-1.6623,30.08107
205,,,1013789,-1.67796,29.70261
206,Cyifuzo,42060402,1013791,-1.65975,29.72655
207,Nyagisozi,42060307,1013790,-1.68033,29.69028
208,Bukerera,42060101,1013793,-1.64305,29.67318
209,Karambo,35120403,1013353,-2.026616,29.57632000000001
210,Bizitiro,31110301,1013869,-2.19785667,29.496655
211,Gomba,31010302,1013873,-2.09219,29.38608
212,Buhari,31050102,1013874,-2.12272,29.34027
213,Kanyegenyege,31110303,1013877,-2.19348,-29.49645
214,Ruhamagariro,26070106,1010409,-2.1755400000000003,30.69667
215,Cyave,44120403,1013246,-1.5650700000000002,29.83916
216,,,1007376,-2.62627,30.6261
217,Nyamigina,26070104,1007606,-2.17262,30.6741
218,Gasharu,24120601,1009280,-2.41201,29.67439
219,Uwimpundu,24030505,1007379,-2.62437,30.64553
220,Kigabiro,28120401,1014333,-1.960603,29.972412
221,Ruhamagariro,22060408,1013574,-2.50203,29.917140000000003
222,Rutete,52050109,1014792,-1.419195,30.10422800000001
223,Kigabiro,28120401,1014332,-1.964977,29.975556
224,Nyaruvumu,21090507,1007899,-2.3381,29.6548
225,Gakoro,43090101,1013464,-1.530129,29.631873
226,Nyundo,43150205,1013465,-1.492419,29.573354
227,Kirwa,44100106,1007334,-1.39214,29.81063
228,Nyarubande,43050405,1013466,-1.548732,29.515524
229,Kirwa,44100106,1007332,-1.3769999999999998,29.80729
230,Karurambi,43050201,1013472,-1.543877,29.546123
231,Murora,43030104,1013480,-1.494191,29.715385
232,Gitara,23020103,1007553,-2.71768,29.59726333
233,Karwiru,31040801,1013713,-2.14826,29.46926
234,Mahembe,31120501,1013719,-2.18978,29.42021
235,Nyabihare,54120410,1007395,-1.92998,30.60766
236,Gikombe,54020303,1013707,-2.0901,30.65996
237,Ruhehe,43040205,1013475,-1.535683,29.745093
238,Nyakanama,43090107,1013467,-1.527581,29.62739
239,Nyakanama,43090107,1013468,-1.532046,29.62881
240,Gakoro,43090101,1013469,-1.529524,29.633423
241,Nyamugari,43030204,1013463,-1.523318,29.691622
242,Kavumu,43140103,1013474,-1.596674,29.658056
243,Muyira,23100302,1007589,-2.7211111,29.448638899999995
244,Nyabizi i,44100406,1013496,-1.33001,29.82555
245,Mahembe,31120501,1013720,-2.18681,29.42727
246,Muhozi,54070402,1013711,-1.9054,30.55323
247,Nyarukore,44010407,1013708,-1.5066,29.99458
248,Bihembe,23100101,1007536,-2.69544,29.45618
249,Kirwa,44100106,1013487,-1.38143,29.81682
250,,,1007558,-2.71525,29.5959167
251,Cyahera,44020302,1013710,-1.43601,29.85018
252,Gahushyi,54120202,1007394,-1.97849,30.58137
253,Gakoro,43090101,1013478,-1.527416,29.631312
254,Kidendezi,43100302,1013471,-1.47301,29.53233
255,Nyabizi i,44100406,1013495,-1.32782,29.83106
256,Nzabuhara,31040405,1013712,-2.12346,29.40763
257,Kigugu,37060303,1013722,-2.312095,29.149186
258,Sangabuzi,44010305,1013709,-1.47722,29.94955
259,Muramba,37110107,1013721,-2.2169380000000003,29.283485
260,Karambi,34090304,1007453,-1.70215,29.51309
261,Gikungu,25010401,1007477,-2.4477333,29.41455333
262,Nyamutukura,34020505,1007450,-1.61806,29.47252000000001
263,Bishyiga,25010201,1012803,-2.42353667,29.46039667
264,Karuhunge,42090302,1007354,-1.6025,29.70666
265,Nyabimata,23100403,1007538,-2.69445,29.45532
266,Uwinzovu,25010507,1012806,-2.43816,29.39109667
267,Rusekera,25010104,1007486,-2.4518150000000003,29.43508667
268,Nyarubuye,45190302,1009702,-1.61168,30.15833
269,Ndongoshori,33050204,1007600,-1.71333,29.3925
270,Kibare,41140401,1012800,-1.62147,29.96712
271,,,1011313,-1.94245,29.470675
272,,,1007898,-1.65575,29.8198
273,Baramba,42020401,1007897,-1.7526099999999998,29.81207
274,Mwumba,31070206,1014345,-2.13099,29.57793
275,Rugaragara,56100107,1014355,-2.20091,30.60236
276,Murambi,56090204,1014352,-2.068,30.57965
277,Runazi,56120305,1014351,-2.1344,30.533790000000003
278,Kansoro,43120202,1013477,-1.446965,29.616203
279,Cyuna,23140201,1007541,-2.706995,29.59134667
280,Kabuye,43140102,1013481,-1.577664,29.654812
281,Gitenge,44100402,1013501,-1.33816,29.81862000000001
282,Uwurusugi,23100203,1007574,-2.7014400000000003,29.438440000000003
283,Uwamuhizi,23140204,1007552,2.7139450000000003,29.594535
284,Ruganzu,37060307,1013716,-2.319874,29.161228
285,Bahenga,44050301,1013488,-1.45014,29.67945
286,Musangabo,44080307,1007335,-1.3822299999999998,29.77727
287,Kirwa,44100106,1013484,-1.37445,29.80846
288,Kabaya,44090403,1013500,-1.46061,29.74088
289,Nyarubuye,44090406,1013497,-1.46659,29.74716
290,Cyiri,43030102,1013470,-1.477522,29.714723
291,Nyamiyaga,43120510,1013473,-1.43056,29.624836
292,Gahama,43120201,1013476,-1.454949,29.616916
293,Agatare,23070201,1007563,-2.69808,29.54557
294,Gasiza,44130302,1013492,-1.42212,29.70465
295,Shaga,44100411,1013494,-1.34705,29.82387
296,Coko,23020102,1013482,-2.73310167,29.57745167
297,Kabagabo,43150401,1013479,-1.475588,29.531147
298,Gasagara,44050402,1013491,-1.43466,29.6722
299,Nyarubuye,44090406,1013490,-1.46467,29.74894
300,Nyagatoki,44090204,1013489,-1.43466,29.6722
301,Coko,23020102,1013483,-2.735675,29.59105333
302,Gitara,23020103,1007554,-2.721561,29.596655
303,Remera,23140203,1007551,-2.70332833,29.58839667
304,Mugeshi,44030305,1013493,-1.38299,29.71278
305,Kigandi,37100505,1013715,-2.335284,29.184096000000004
306,Burega,31040601,1013718,-2.15214,29.41315
307,Kigarama,31090105,1013714,-2.0824,29.4245
308,Gitovu,44110102,1007336,-1.48563,29.88871
309,Muramba,37110107,1013717,-2.224749,29.291024
310,Ruhinga,23100504,1007594,-2.69618,29.42616
311,Mutembo,54120206,1007396,-1.9678400000000005,30.58284
312,Muyira,23100302,1007595,-2.7221,29.43916
313,Kamiro,34090602,1007444,-1.681,29.50024
314,Cyumuzi,23100502,1007591,-2.69811,29.42603
315,Kabuga?,,1007404,-1.750277,29.745
316,Buhoro,25010202,1012801,-2.4418,29.44929833
317,,,1007441,-1.6911944,29.5574167
318,Nkamba,25010604,1012805,-2.42504833,29.42907333
319,Kamutora,45170203,1009711,-1.47875,30.10468
320,Mazinga,42180602,1012804,-1.6225,29.66777
321,,,1007463,-2.45195667,29.427665
322,Cyumuzi,23100502,1007566,-2.69631,29.43436
323,,,1007561,-2.6860833,29.4780833
324,Gakangaga,25010203,1012802,-2.43705833,29.44304667
325,Murambi,23100401,1007557,-2.68572,29.47124
326,,,1011304,-1.948219,29.479638
327,Gisenyi,34070203,1007439,-1.6198,29.502440000000004
328,Rurambo,34110207,1012799,-1.6798400000000002,29.51707
329,Agasugi,23100501,1007570,-2.69743,29.43339000000001
330,Kabere,23100201,1007539,-2.697944,29.446917
331,Gituku,56100204,1014358,-2.12746,30.64571
332,Karuruma,56100403,1014361,-2.18396,30.62258
333,Rugaragara,56100107,1014354,-2.2017900000000004,30.60416
334,Nyamabuye,56100209,1014359,-2.1293900000000003,30.61855
335,Icyakabiri,56090302,1014349,-2.0566,30.47997
336,Ruhama,56100407,1014360,-2.18396,30.62926
337,Bweranka,56100202,1014356,-2.15593,30.63163
338,Mwunguzi-Ngobagoba,,1014347,-2.07245,29.60469
339,Gikomero,56090301,1014350,-2.08722,30.50135
340,Nyagatovu,56050304,1014380,-2.107592,30.609893
341,Rutovu,56050205,1014378,-2.103568,30.57552
342,Birambo,31060201,1007387,-2.14783,29.535028000000004
343,Murambi,56030309,1014369,-2.11637,30.46358
344,Nyabwoma,31060106,1014375,-2.155625,29.5944
345,Kivugangoma i,56030306,1014368,-2.11144,30.46133
346,Mukibimba,56120102,1014366,-2.14135,30.49706
347,Ryanyamuhda-Gisenyi,,1014362,-2.14193,30.50383
348,Kanyarusanga,31120702,1007391,-2.15350833,29.356425
349,Gikomero,56090301,1014370,-2.085,30.50046
350,Makoma,56140307,1014363,-2.18739,30.410090000000004
351,Burwi,31070201,1014374,-2.136568,29.5995
352,Kumuni-Ruhuha,,1014371,-2.07431,30.486490000000003
353,Karambo,31060403,1014376,-2.162912,29.574572
354,Birambo,31020101,1007388,-2.14375,29.5181389
355,Kibimba,56100106,1014364,-2.17331,30.57956
356,Muhingo,31120302,1014373,-2.15347,29.35955
357,Misange,56050302,1014379,-2.0921133000000003,30.585332
358,Cyerwa,56140203,1014367,-2.1755,30.40085
359,Kagarama,56100205,1014365,-2.14107,30.59631
360,Rutovu,56050205,1014377,-2.095675,30.576452000000003
361,Gitwa,31070103,1014346,-2.10761,29.56258
362,Gituku,56100204,1014357,-2.1287700000000003,30.64523
363,Kabeza,56100103,1014353,-2.19132,30.60191
364,Urusagara,56120506,1014348,-2.10605,30.49761
365,Kabimba-Mmbo,,1014381,-2.1655450000000003,30.549758
366,Kazabe,33100402,1009068,-1.723639,29.366194
367,Nyarurembo,33120504,1009066,0.0,0.0
368,Kabagoti,22040406,1013727,-2.64711,29.80976
369,Kivumu,22040107,1013725,-2.5914900000000003,29.75931
370,,,1008002,-1.78583333,30.0825
371,Nombe,33100705,1009071,-1.7056,29.30982
372,,,1009069,0.0,0.0
373,Buhoro,22040101,1013726,-2.59415,29.77829
374,Murambi,23100401,1007545,-2.67962,29.46244
375,Karambi,21100505,1012833,-2.34876,29.68835
376,Nyabinyenga,22080103,1013811,-2.70198,29.812890000000003
377,Akinyana,22120403,1013809,-2.78075,29.74108
378,Gatarinzira,22120203,1013805,-2.7759,29.70875
379,Agasharu,22050601,1013813,-2.7045,29.75324
380,Nyarunyinya,22050606,1013810,-2.7234,29.76373
381,Nyarukurazo,22050605,1013804,-2.7242,29.75411
382,,,1007583,-2.71667,29.738640000000004
383,Gatare,22030105,1013812,-2.70192,29.76218
384,,,1007559,-2.6965833,29.540111100000004
385,Nyagatoma,45020404,1010574,-1.564607,30.107231
386,Nyarwina,45020107,1010581,-1.58735,30.14216
387,Nyagatoma,45020404,1010575,-1.565258,30.110382
388,,,1021789,-1.947858,30.00694444
389,Rugarama  a,21100604,1012834,-2.37584,29.68033
390,Sare,22120206,1013806,-2.79714,29.69812
391,Rususa,22090312,1013807,-2.74102,29.856240000000003
392,Maheresho,22120404,1013808,-2.77338,29.75503
393,Warufu,45020406,1010576,-1.554772,30.129922
394,Maya,45130102,1010578,-1.6753630000000002,30.097712
395,Kavuruga,45020102,1010580,-1.5751879999999998,30.14421500000001
396,Maya,45130102,1010579,-1.66842,30.100122
397,Gahondo,45020401,1010577,-1.539721,30.127624
398,Rwarurema,45020109,1010573,-1.59687,30.15019
399,Ruhango,45130103,1010583,-1.65891,30.114194
400,Kavuruga,45020102,1010572,-1.57746,30.136540000000004
401,Kigarama,22100306,1013731,-2.55904,29.83055
402,Cyayi,22100201,1013733,-2.51012,29.86378
403,Cyayi,22100201,1013734,-2.4919,29.85804000000001
404,Ntwari,23070402,1013736,-2.722467,29.511496
405,Gitwa,22130203,1013729,-2.56425,29.78521
406,Gihinga,22100104,1013732,-2.52261,29.86105
407,Kigarama,22040408,1013728,-2.65762,29.81981
408,Kigwa,22130205,1013730,-2.57166,29.78138
409,Rujeberi,37080305,1014131,-2.54704093,29.03581174
410,Kamayenga,37020107,1014125,-2.43036899,28.98131295
411,Gitwa,37020106,1014126,-2.42782026,28.96789415
412,Karuhigi,37150304,1014124,-2.38012159,29.04157223
413,Rusumo,41080606,1013737,-1.65413,30.01517
414,Nyamugali,41010208,1007620,-1.66139,29.88583
415,Cyamuti,37120103,1014122,-2.33294045,29.02570225
416,Kazibo,37120407,1014121,-2.34955,29.04256
417,Gakaranka,23120501,1007542,-2.77593,29.4562
418,Cyivugiza,23120301,1007535,-2.7761,29.464528
419,Ryarugarama,23090605,1007575,-2.7814444,29.663361100000003
420,Kivu,23040402,1014129,-2.61265,29.50877
421,,23130205,1007573,-2.56058,29.49439000000001
422,Karambi,41010306,1007633,-1.61306,29.88583
423,Cyerwa,51040701,1014793,-2.06596,30.31733
424,Gasiza,26050401,1010428,-2.15158,30.65636
425,Kanege,56010302,1014435,-2.20317,30.464068
426,Kizenga,56070102,1014427,-2.235312,30.552363
427,Umukamba,56040504,1014424,-2.170028,30.497287
428,Kukabeza,56030103,1014433,-2.1821080000000004,30.453907
429,Gahondo,56040101,1014432,-2.195243,30.475603000000003
430,Rwasaburo,56120306,1014423,-2.1342683,30.533528000000004
431,Gahondo,56040101,1014431,-2.195678,30.476143
432,Mukibara-Tambiro,,1014425,-2.229075,30.526267
433,Mumahoro,56030308,1014428,-2.085295,30.445293
434,Cyeru,56070201,1014426,-2.201705,30.60411
435,Rukizi,56030107,1014434,-2.166942,30.441723
436,Rwakayango,56030310,1014430,-2.101273,30.426758000000003
437,Rugote,23120503,1007568,-2.7800833,29.451
438,,,1007560,-2.7785278,29.44775
439,,,1007546,-2.7803056,29.4508056
440,Busanza,23020401,1007572,-2.7891,29.56721
441,Nyamapfunda,24030104,1013507,-2.63352,29.62583
442,Zaga,24030406,1007378,-2.60378,29.66448
443,Uwarugondo,24030307,1007377,-2.63101,29.63617
444,Maliza,24130304,1013504,-2.51052,29.70255
445,Murambi,,1007424,-1.85605607,29.62150397
446,Mataba,41140304,1012797,-1.62068,29.95006
447,Mataba,35020602,1012545,-1.93678,29.63541
448,Kirwa,23120303,1007543,-2.7989330000000003,29.4761
449,,,1010405,-2.7515560000000003,29.717861
450,Cyivugiza,23120301,1007534,-2.7791667,29.464333
451,Cyendajuru,24130102,1013503,-2.51947,29.6697
452,Kanyiramana,24130503,1013502,-2.48655,29.65746
453,Gasekebuye,24010302,1013505,-2.63019,29.71337
454,Akagahaya,24010201,1013508,-2.66388,29.69276
455,Nyamirama,25070404,1013583,-2.396316,29.577776
456,Kiduha,24010307,1013506,-2.61005,29.69215
457,Gatongati,24020201,1013509,-2.5880400000000003,29.67228
458,Rujumbura,24080210,1007381,-2.68664,29.75706
459,Agatovu,24030402,1013510,-2.61104,29.65406
460,Remera,24080209,1007380,-2.66052,29.746440000000003
461,B-Jabar,56110501,1007417,-2.16867,30.26261
462,Bakannyi,51080501,1014562,-1.90335,30.39168
463,Gitesanyi,56110101,1014556,-2.2041,30.30697
464,Gitaraga,51140202,1014557,-2.06377,30.40876
465,Midahandwa,51140206,1014558,-2.0487900000000003,30.42496
466,Nyenyeri,13070107,1014551,-1.995001,30.061769
467,Rebero,13070404,1014552,-2.003541,30.055354
468,Rusave,56060506,1014561,-2.1059900000000003,30.37534
469,Amajyambere,11090102,1014553,-1.970697,30.067016
470,Kiruhura,51080202,1014564,-1.92899,30.36272
471,Kabuye,51080201,1014563,-1.93773,30.37988
472,Mfune,56110103,1014555,-2.20515,30.28804
473,Midahwa-Nyagakombe,,1014559,-2.0441700000000003,30.425290000000004
474,Ururembo,51030303,1014560,-1.90335,30.39168
475,Kagarama,56110401,1014554,-2.19809,30.32175
476,Kizenga,37110303,1013887,-2.233859,29.250362
477,Bumbogo,28080201,1014300,-2.07671,29.88236
478,Nyabitare,28090104,1014301,-2.1120400000000004,29.82869
479,Agasaka,23090601,1007565,-2.77066667,29.66886
480,Mutusa,37050406,1013888,-2.37385,29.095785
481,Gomba,45150101,1007364,-1.47241,29.99602
482,Centre rubaya,45150401,1007366,-1.46707,29.99598
483,,,1007517,-2.19384,29.27192
484,Kanama,56030304,1014429,-2.106907,30.42817
485,Gasiza,26050401,1007609,-2.161944,29.665556
486,Nyarunyinya,37040405,1013882,-2.183169,29.262155
487,,,1007374,-2.5133330000000003,29.612778
488,,,1012501,-2.621482,29.64903300000001
489,Kamurera,43130202,1013309,-1.562608,29.705632
490,Rwamigimbu,43140208,1013311,-1.545719,29.672590000000003
491,Budiho,43040301,1013301,-1.585599,29.749456
492,Bambiro,24130201,1013336,-2.48378,29.68794
493,Kabashima,43130403,1013342,-1.537665,29.70012800000001
494,Nyarutovu,24110307,1013338,-2.44354,29.7827
495,Rubanga,24110308,1013332,-2.46826,29.77101
496,Kageyo,43100106,1013345,-1.491395,29.626729
497,Kigarama,37040402,1013884,-2.200863,29.268609
498,Mpishyi,37150204,1013879,-2.422817,29.04354600000001
499,Gakombe,37020402,1013880,-2.395291,28.992706
500,Rushoka,37040406,1013881,-2.213654,29.257268
501,Kizenga,37110303,1013883,-2.2323630000000003,29.254785
502,Rwabagoyi,37150206,1013878,-2.414849,29.04660100000001
503,Muhororo,37040505,1013885,-2.232662,29.218742
504,Karambo,37110302,1013886,-2.221268,29.256019
505,Ryakanyamiganda,23090505,1007580,2.79415,29.6986
506,Kamanura,36160401,1013909,-2.54605,28.96095
507,Kasemanyana,25050201,1007500,-2.312785,29.559739
508,Bimba,25040502,1007465,-2.345116,29.43387
509,Gasasa,37030101,1013891,-2.392599,29.239326
510,Nyamiheha,37110207,1013893,-2.210267,29.263236
511,Gasihe,37060402,1013894,-2.360876,29.157374
512,Nyundo,42180404,1015693,-1.6211870000000002,29.660569
513,Rwisovu,37050110,1013889,-2.34745,29.143437
514,Bwanama,37030301,1013892,-2.401998,29.204765
515,Nyakabingo,37030211,1013890,-2.393212,29.219801
516,Kibiraro,25050202,1007499,-2.294523,29.55516
517,Kiyovu,45140204,1007368,-1.59132,30.01386
518,Rugarama,24100705,1013335,-2.4812,29.74129000000001
519,Gatare,43130502,1013313,-1.5664049999999998,29.731918
520,Rugerero,24120404,1013339,-2.40231,29.71602
521,Kivumo,44010302,1013319,-1.49022,29.95422
522,Gihana,24050203,1013340,-2.38471,29.76592
523,Gatare,43130502,1013312,-1.557449,29.728546
524,Nyabusunzu,24110404,1013331,-2.4851,29.809040000000003
525,Kiraro,44070302,1013321,-1.52521,29.78268
526,Kabashima,43130403,1013315,-1.536183,29.70660800000001
527,Ruvugizo,24050308,1013333,-2.3965,29.79099
528,Kabakungu,27100402,1007397,-1.8106111,29.7573333
529,Munini,37060107,1013895,-2.343073,29.140422
530,Karama,45120404,1010917,-1.66992,30.05585
531,Ngarama,41030207,1007622,-1.692446,29.904097
532,Kabahama,41010304,1007628,-1.6306667,29.8939167
533,Ruyenzi-Uwigisura,,1007582,-2.7557222,29.4549167
534,,,RW127,-2.711764,29.557267
535,Bugizi,23130501,1007599,-2.53305556,29.53638889
536,Kidandari,34120502,1007437,-1.6695278000000002,29.5934722
537,Ruvumba,41170506,1007621,-1.7488439999999998,29.951975
538,Rubanda,41010110,1007615,-1.6443888999999998,29.8994722
539,Nyarubura,37060506,1013896,-2.36254,29.2193
540,Rugabe,36140407,1013910,-2.51669,28.96432
541,Cercle sportif,11090302,1014567,-1.965138,30.071417
542,,,1007598,-2.68053167,29.51431667
543,,,1009317,-2.7608330000000003,29.488056
544,Kinini-rusiga,41150202,1013754,-1.75492,29.92516
545,Rutabo,41080406,1013755,-1.66643,30.03168
546,Kigarama,41150201,1013753,-1.77387,29.93239
547,Kabumbwe,36160102,1013911,-2.53318,28.95045
548,Gifumba,41150101,1013750,-1.83904,29.97107
549,Gahama,41110303,1013764,-1.795,30.03292
550,Karenge,41150304,1013752,-1.83068,29.90837
551,Kinaba,34080403,1013758,-1.74472,29.53323
552,Kibiraro,24050401,1013334,-2.43844,29.7937
553,Bikumba,44060201,1013327,-1.55547,29.98941
554,Kaberano,44150303,1013325,-1.59185,29.923
555,Bikumba,44060201,1013318,-1.56761,29.99711
556,Gatare,43130502,1013314,-1.576444,29.728154
557,Rusuzuma,44070107,1013320,-1.49763,29.80603
558,Akanyana,24100602,1013337,-2.49432,29.735090000000003
559,Buzaniro,44010301,1013317,-1.50145,29.95181
560,Mushubi,44170405,1013322,-1.5298200000000002,29.85156
561,Zihare,44060109,1013316,-1.50342,29.95362
562,Burindwa,44170101,1013324,-1.5088700000000002,29.84577
563,Bukane,43100102,1013343,-1.497265,29.616601
564,,,1013323,-1.51042,29.8463
565,Bikumba,44060201,1013326,-1.55462,29.98703
566,Budiho,43040301,1013305,-1.583976,29.74787
567,,,1007503,-2.3283400000000003,29.44182
568,Rukamiro,25070305,1007471,-2.4243,29.5426533
569,Nyagasozi,27110104,1013350,-1.97717889,29.67449787
570,Gasharu,27090102,1013351,-2.05545934,29.64411986
571,Kabeza,27060104,1013349,-1.98365945,29.65245312
572,Mataba,27050103,1012951,-2.04935967,29.70709763
573,Gisiza,27050401,1012949,-2.00518138,29.7139582
574,Munini,27010104,1012953,-2.01211492,29.76212259
575,Ryakiyange,27070104,1012958,-1.79307191,29.6751037
576,Nyiramarangara,27050305,1012952,-2.04202456,29.7725994
577,Mataba,45120504,1011331,-1.70215,30.07467
578,Busabira,45120201,1007370,-1.72859,30.07666
579,Fumbwe,27100101,1007399,-1.81295875,29.77787873
580,Gitwa,27070501,1012955,-1.77229,29.66985
581,Ngaru,27070203,1012954,-1.73435,29.66043
582,Mpanga,27020603,1012948,-1.984992,29.73314
583,Murama,27070304,1012957,-1.78470369,29.68177755
584,,,1007460,-1.296011,30.247121000000003
585,Kamate,52140403,1007459,-1.2991944,30.2575833
586,Rukondo,45120305,1010908,-1.7146099999999995,30.08255
587,Gasumo,37060403,1013898,-2.353335,29.147336
588,Rushoka,37040406,1013897,-2.208637,29.262007
589,Gahisi,37130201,1013901,-2.408611,29.188273
590,Murambi,37130404,1013900,-2.404371,29.168585
591,Kamatsira,37130203,1013899,-2.407594,29.163424
592,Karyango,44120203,1012973,-1.56439,29.85781
593,Kagihanga,44120202,1012972,-1.55437,29.852840000000004
594,Ryaruhirima,44120207,1012974,-1.54643,29.84546
595,Karyango,44120203,1012975,-1.55797,29.86744
596,Bihira,34110101,1013386,-1.62778,29.59093
597,Ruhigiro,34050107,1013375,-1.65254,29.4929
598,Bwumba,34100201,1013384,-1.61143,29.57829000000001
599,Nyacyonga,34020405,1013389,-1.57778,29.47565
600,Gasasa,34050101,1013369,-1.64694,29.47735
601,Runyanja,34020306,1013373,-1.60836,29.47061
602,Runyanja,34020306,1013372,-1.61142,29.472890000000003
603,Biseke,34050401,1013374,-1.66137,29.50069
604,Kinamba,34010605,1013378,-1.65625,29.42217
605,Mucaca,34100605,1013387,-1.62606,29.60041
606,Nkurunziza,36090206,1013973,-2.48234,28.90941
607,Kamahoro,36120503,1013971,-2.42021,28.95772
608,Busasamana,34010103,1013382,-1.61593,29.45548
609,Ruyebe,34050605,1013366,-1.6503599999999998,29.52165
610,Murungu,34110107,1013383,-1.6243299999999998,29.59547
611,Ruyebe,34050605,1013392,-1.65549,29.51862
612,Rubare,34020407,1013368,-1.59466,29.471840000000004
613,Gisozi,34020502,1013371,-1.6145200000000002,29.47951
614,Gahama,34030102,1013364,-1.70127,29.55681
615,Rushunguru,34020506,1013370,-1.6286200000000002,29.47369
616,Kamahoro,36120503,1013970,-2.42341,28.95197000000001
617,Sumoyamana,36120405,1013968,-2.39416,28.94347
618,Karama,36120104,1013969,-2.42356,28.94508
619,Cyamabuye,34020501,1013377,-1.62689,29.488840000000003
620,Mashyuza,34050603,1013367,-1.64985,29.522890000000004
621,Rwangege,34100208,1013363,-1.60288,29.59389
622,Nyagihinga,34010107,1013381,-1.6562400000000002,29.42214
623,Kageri,34020104,1013379,-1.62934,29.4568
624,Gasayo,34100202,1013385,-1.61454,29.5842
625,,,1013388,-1.65113,29.491840000000003
626,Nyakiriba,34100606,1013390,-1.63183,29.60816
627,Cyanika,34090201,1013391,-1.66123,29.52429
628,Ngoma,36090106,1013972,-2.49231,28.91087000000001
629,Kingona,34100603,1013380,-1.62865,29.61529
630,Kabutimbiri,36120401,1013966,-2.40129,28.95172
631,Burege,36120102,1013967,-2.40908,28.94244
632,Burunga,36060101,1013974,-2.47061,28.91442
633,Burunga,36060101,1013975,-2.46143,28.91068
634,Gakeri,32130202,1011305,-1.94222,29.485
635,Gisozi,32130401,1011310,-1.9536111,29.53222
636,Gisozi,32130401,1007672,-1.95555,29.95166
637,,41130208,1007630,-1.75497,30.08422
638,Bigugu,25130401,1012979,-2.422048,29.46585300000001
639,Tubuye,25150306,1012983,-2.345908,29.40970200000001
640,Shorezo,44120208,1012976,-1.57513,29.87746
641,Rugazi,25130606,1012982,-2.395584,29.487653
642,Ruhanga,25040504,1012980,-2.346276,29.420032
643,Kibiraro,25050202,1012981,-2.295722,29.551741
644,Mukebera,32020203,1012990,-1.975,29.38805
645,Isangano,52110307,1007455,-1.334487,30.250622
646,Bitaba,25130402,1012985,-2.433943,29.46317
647,Gakeri,32130202,1011306,-1.94833,29.493611
648,Gakereko,25130404,1012978,-2.427205,29.475815
649,Rusoyo,25150205,1012984,-2.276669,29.411297
650,Kirumbi,32130403,1012986,-1.94833,29.493611
651,Nyiraruhuha,44120206,1012977,-1.58122,29.88095
652,Kabucuku,36080101,1013979,-2.57813,28.97657
653,Muhororo,45120304,1010915,-1.71943,30.11859
654,Bitaba,36040801,1013985,-2.60778,28.95301
655,Nkwiro,32020205,1012987,-1.9788,29.378611
656,Ruganda,32130210,1012991,-1.9222,29.473611
657,Mukebera,32020203,1012989,-1.93166,29.4955
658,Gishushu,32020101,1012988,-1.97027,29.3844
659,Kinaba,25010404,1012993,-2.4868900000000003,29.416145
660,Karambo,25040101,1012994,-2.37318833,29.42095333
661,Kiyovu,25040202,1013001,-2.373135,29.40052667
662,Karambo,25040101,1012996,-2.368775,29.42337667
663,,,1013992,-2.6402,29.00718
664,Ngoma,36170104,1013990,-2.6639,28.95315
665,Rukohwa,36060406,1013977,-2.44658,28.9137
666,Kabucuku,36080101,1013980,-2.5754900000000003,28.97839
667,Karitasi,36060108,1013993,-2.45603,28.91183
668,Kivoga,36060402,1013978,-2.4432,28.90885
669,Gasenge,25160301,1012998,-2.52520667,29.50410667
670,Rubenga i,36060404,1013976,-2.45007,28.91671
671,Uwumugeti,25160509,1012997,-2.540715,29.503838
672,Baziro,25040501,1013000,-2.35571333,29.4072
673,Baziro,25040501,1012999,-2.34743667,29.4097
674,Karambo,25040101,1012995,-2.37023167,29.42249833
675,Minaga,25010405,1012992,-2.4595700000000003,29.42245333
676,Musega,41090302,1007636,-1.80183,30.075740000000003
677,Kigarama,36080205,1013984,-2.60072,28.99702000000001
678,Gatare,36180401,1013987,-2.62002,28.96343
679,Gashagwa,36170101,1013991,-2.66859,28.94991
680,Karushaririza,36060110,1013995,-2.46236,28.92434
681,Kabucuku,36080101,1013981,-2.58071,28.97723
682,Karitasi,36060108,1013994,-2.45187,28.91158
683,Nyange,36180403,1013986,-2.61167,28.96442
684,Kabugarama,36080102,1013982,-2.57392,28.98504
685,Ngoma,36170104,1013989,-2.6627,28.95512
686,Nyakivomero,36080405,1013983,-2.5847,29.014090000000003
687,Gatare,36180401,1013988,-2.6174,28.95564
688,Kamabuye,21060107,1013011,-2.30024,29.6845
689,Buhaza,21070101,1013012,-2.33834,29.841040000000003
690,Gisebeya,35080401,1007419,-1.82084,29.54068
691,Kidaturwa,21060507,1013002,-2.26129,29.74834
692,Rebero,36120505,1013996,-2.40718,28.95003
693,Kigarama,21100601,1013009,-2.39148,29.693690000000004
694,Kinyana,21070204,1013013,-2.3803400000000003,29.86227
695,Karambi,21060402,1013005,-2.2864,29.734140000000004
696,Mugereke,28090103,1014303,-2.09932,29.812690000000003
697,Nyamiyaga,21100104,1013015,-2.34365,29.72707
698,Bugarama,21030502,1013007,-2.28603,29.67857
699,Mataba,21060404,1013006,-2.28569,29.71634
700,Kinyana,21070204,1013014,-2.37474,29.86776
701,Biroro,21060502,1013003,-2.27217,29.76871
702,Cyegera,21070401,1013010,-2.34749,29.79864
703,,,1007433,-1.9307222,29.640361100000003
704,Kavumu a,21100506,1013008,-2.3593900000000003,29.6848
705,Rutete,21060511,1013004,-2.28832,29.75688
706,Remera,28090105,1014302,-2.10741,29.80042000000001
707,Kibimba,56100206,1014490,-2.117773,30.60761500000001
708,Rukore,33100405,1009067,-1.7469720000000002,29.370611
709,Gashihe,32110404,1012433,-1.790933,29.381622
710,Gaseke,41080301,1013747,-1.66082,30.05076
711,Kinaba,34080403,1013759,-1.74404,29.534440000000004
712,Munini,41100405,1013751,-1.79607,29.9438
713,Iraro,41110401,1013763,-1.77748,30.01516
714,,34080402,1013761,-1.7246,29.54478
715,Kibuye,41080402,1013745,-1.64805,30.01587
716,Gako,41080401,1013757,-1.63989,30.01374
717,Karwa,41110103,1013756,-1.83463,30.04618
718,Kabuye,41150103,1013749,-1.78679,29.93873
719,Kabuga,41110403,1013762,-1.8204,30.01401
720,Bitare,41150301,1013748,-1.82989,29.92981
721,Karambo,41110102,1013746,-1.8472,30.02041
722,Nyabyunyu,22020411,1013912,-2.57105,29.889740000000003
723,Mukuge,23080203,1010404,-2.682028,29.703194
724,Munanira,23070504,1007556,-2.73581,29.56682
725,Akiminazi,22110101,1013914,-2.60413,29.80698
726,,,1011316,-1.892213,29.456516
727,Rusasa,22020311,1013915,-2.59392,29.8922
728,Kanyovu,36160403,1013916,-2.55346,28.952240000000003
729,Gisiza,32080204,1013596,0.0,0.0
730,Kabaya,42040403,1013603,-1.65105,29.80862
731,Nganzo,42190405,1013599,-1.74886,29.87465
732,Muhora,32020404,1013605,-1.97905,29.36179000000001
733,Gitisi,22070205,1013923,-2.62646,29.88709
734,,,1013920,-2.68141,29.87402
735,Bitaba,36160201,1013924,-2.55713,28.92587
736,Kabavomo,23010302,1013846,-2.799865,29.55367
737,Akiminazi,22110101,1013913,-2.59858,29.81743
738,,,1012004,-1.95277,29.49722
739,Kabingo,42140202,1013601,-1.7309900000000005,29.87352000000001
740,Kacyiru,32130207,1013595,-1.9233,29.469722
741,Kanoga,36160402,1013917,-2.54047,28.95991
742,Nyarusange,27070305,1012956,-1.77785489,29.67587526
743,Karambo,27020203,1012947,-1.95197033,29.77510744
744,Bucaya,22070502,1013919,-2.7055700000000003,29.89536
745,Nkuna,32110412,1011309,-1.763,29.376790000000003
746,Busave,22020101,1013921,-2.57408,29.87933
747,Rebero,56040202,1014491,-2.206378,30.521405
748,,,1014495,-2.256448,30.484267
749,Kanyinya,56070407,1014494,-2.267435,30.545003
750,Impinga,56030101,1014492,-2.137525,30.459055
751,Shirinyota,56020312,1007415,-2.228352,30.335798
752,,,1014493,-2.271583,30.334962
753,Giheta,28060203,1014304,-2.07101,29.84978
754,Kayanza,33100604,1014007,-1.70278,29.33445
755,Munyinya,28080507,1014305,-2.08723,29.92198
756,,,1014307,-2.08754,29.94017
757,Buhoro,28080501,1014306,-2.08435,29.93516
758,Kabuga,28020102,1007384,-1.972033,29.84578
759,Ryagashaza,28020204,1007383,-1.971072,29.838172
760,Gatare,11020102,1007530,-1.94142,30.034608
761,,,1007531,-1.935831,30.051385
762,Gahira,37130102,1013902,-2.442198,29.203302
763,Gasasa,34050101,1007442,-1.6331111,29.476611100000003
764,Cyarera,21030202,1007528,-2.29248,29.61608
765,Karambi,26030202,1012700,-2.22283,29.65287
766,Gisiza,41090101,1007635,-1.76842,30.063240000000004
767,Nyamigina,26070104,1012547,-2.18874,29.69027
768,Mitabi,41020212,1007647,-1.74817,30.03081
769,Kirwa,26030104,1012699,-2.22162,29.61977000000001
770,,,1009857,-2.12042,29.6838
771,Murambi,34090404,1013027,0.0,0.0
772,Kiraza,34090403,1013029,-1.6706900000000002,29.46836
773,Masambu,26010406,1012701,-2.23697,29.73556
774,Buterana,26090801,1012548,-2.18748,29.81693
775,Bihira,34110101,1013024,-1.63099,29.58643
776,Murambi,34090404,1007452,-1.6799099999999998,29.46661
777,Gatobo,34110601,1013025,-1.67321,29.57457
778,Kamugarura,34110502,1013023,-1.6693900000000002,29.59021
779,Gatenderi,41040303,1007617,-1.7244099999999998,30.0589
780,Kirambo,41050305,1007642,-1.75152,30.00904
781,Kabutozi,34110603,1013020,-1.6876400000000005,29.5561
782,Gitega,34120601,1013021,-1.6798099999999998,29.58516
783,Bugarama,34020102,1013018,-1.61591,29.45511
784,Bukinanyana,34010102,1013019,-1.6637400000000002,29.4215
785,Rwamigega,34110110,1013026,-1.67288,29.57468
786,Nyiragikokora,34090405,1013028,-1.68216,29.46831
787,Gitega,34120601,1013022,-1.67288,29.57468
788,Vunga,56020508,1007416,-2.2748060000000003,30.43525
789,Sabaganga,13020312,1014504,-1.992257,30.085447
790,,,1007414,-2.253768,30.378498
791,Buranga,12090202,1014508,-1.94362,30.121686
792,Bigo,13020401,1014507,-2.011603,30.082825
793,Bigo,13020401,1014506,-2.007747,30.079832
794,Mizibiri,56010103,1014509,-2.21354,30.437908
795,,,1014505,-1.998487,30.107728
796,Byiniro,32130101,1011303,-1.9386111,29.45666
797,Ruhuha,32130307,1011301,-1.91924,29.47704
798,Bungwe,32130201,1011302,-1.92295,29.47887
799,Kamuragi,41170501,1007634,-1.74278,29.94694
800,Cyiri,41030202,1007629,-1.68333,29.89917
801,Gahira,37130102,1013903,-2.442784,29.202178000000004
802,Zigati,25080406,1013424,-2.39188167,29.52233833
803,Nyagatovu,25080104,1013419,-2.396595,29.549835
804,Murambi,25080404,1013423,-2.374415,29.51966667
805,Nyamirama,25100205,1007482,-2.3908400000000003,29.57068
806,Kabajogo,25030402,1013425,-2.48488667,29.57838
807,Nyamifumba,25030605,1013415,-2.46756167,29.55258167
808,Kirwa,25070202,1013422,-2.41763333,29.555675
809,Gatare,25020301,1013418,-2.46321833,29.63056167
810,Gatandaganya,25080301,1013413,-2.39137,29.52399167
811,Nyamirama,25080105,1013414,-2.385695,29.54770167
812,Butare,25100401,1013416,-2.3796,29.6106633
813,Gikomero,25080202,1013421,2.442831,29.49934667
814,Kirwa,25080304,1013420,-2.37946833,29.54139167
815,Ruseke,25100406,1013417,-2.372525,29.6006183
816,Rwkanka-Tububuru,,1013611,-2.59941667,29.56459167
817,Kintare,23040203,1007593,-2.63333889,29.454444
818,Rwanka-Kazi,,1007584,-2.614243,29.571836
819,Ruganza,23040104,1007590,-2.63522167,29.45740167
820,Kigeyo,44120102,1013618,-1.591966,29.876044
821,Gasezo,23040201,1007597,-2.62936,29.4521944
822,Ruhondo,45120507,1010919,-1.693048,30.06977
823,,,1009705,-1.464697,30.056749
824,Buhinga,36070302,1014089,-2.5886,29.05452
825,Gaseke,36150104,1014097,-2.5679,29.01254
826,Kiyovu,36010207,1014094,-2.70183,29.03029
827,Sanganiro,36100210,1014095,-2.63441,29.01131
828,Karambo,31070203,1014081,-2.10922,29.59721
829,,,1014101,-2.50322,28.90339
830,Kavumu,31130503,1014078,-2.23732,29.40253
831,Gisayo,32110405,1011308,-1.7775740000000002,29.377044
832,Nyabitimbo,36020206,1014100,-2.56517,29.08278
833,,,1014099,-2.58878,29.09516
834,Nkanga,36150404,1014085,-2.57161,29.03953
835,,,1014084,-2.57067,29.02658
836,Bitendezi,36150201,1014096,-2.55317,28.99986
837,Muhari,36060504,1007659,-2.45399,28.89774
838,Busuti,32110103,1011311,-1.7553,29.373762
839,Gipfura,36110105,1014093,-2.5886,29.05452
840,Buhinga,36070302,1014087,-2.59176,29.04348
841,Gombaniro,36010302,1014091,-2.72777,29.03227
842,Kanoga,36070306,1014088,-2.59647,29.04596
843,Mujyojyo,31070204,1014080,-2.11637,29.5875
844,Bugayi,36110501,1014092,-2.5886,29.05452
845,Kanama,33050304,1007601,-1.70902,29.35808
846,Mizibira,36150606,1014102,-2.56301,29.06172
847,Kibari,31110603,1014083,-2.24481167,29.44779833
848,Jyambere,36070305,1014086,-2.60327,29.0416
849,Gasihe,36020102,1014098,-2.57552,29.0818
850,Murehe,31130604,1014079,-2.2414,29.39529000000001
851,Kabusunzu,36010204,1014090,-2.7023,29.00658
852,Rusayo,36010113,1007660,-2.68722,29.02778
853,Kibara,32130102,1011314,-1.935,29.47888
854,Cyagara,36010102,1007657,-2.6891,28.99726
855,Sholi,27010601,1017673,-2.012167,29.763889
856,Ruhabwa,37080507,1014009,-2.515733,29.04382
857,Bisesero,31120201,1007390,-2.16372,29.35439
858,Rusambu,37140108,1014008,-2.431462,29.018172
859,Bushekeri,37010102,1014010,-2.401338,29.092203
860,Ntora,12040204,1007680,-1.916403,30.04942
861,Mugali,42090303,1007343,-1.603205,29.719441
862,Kibaya,42180105,1007357,-1.619444444,29.63333333
863,Ngabira,45170305,1009712,-1.4452200000000002,30.08827
864,Kabuga,27020301,1012810,-1.93662,29.73471
865,Peru,27020705,1012809,-1.92495,29.78201
866,Buranga,42160101,1007356,-1.639722,29.784722
867,Nkegete,27020703,1012807,-1.91078,29.77379
868,Kabuga,36140204,1014012,-2.504565,28.994356
869,Nyamugari,45020209,1009713,-1.55224,30.16326
870,Mpinga,36140209,1014013,-2.517903,29.002786
871,Rubuye,27120205,1012808,-2.10805,29.79286
872,Matssi-Masaka,,1007402,-2.14494,29.77813
873,Gitunda,37080302,1014011,-2.554196,29.043492
874,Mukungwa,43030306,1007412,-1.536111111,29.67916667
875,Ndayabana,45020403,1009716,-1.54881,30.13056
876,Kavuza,42150303,1007348,-1.688888888,29.66805556
877,Mwanza,42100307,1007340,-1.7388880000000002,29.755277000000003
878,Mpinga,36140209,1014014,-2.523685,28.998094
879,Muhora,36140309,1014015,-2.531842,29.000594
880,Kibaza,57130203,1014571,-2.32955,30.056882
881,Kabgo-Gataba,,1014027,-2.19859833,29.51245167
882,Rasaniro,31080704,1014077,-2.24468,29.40848
883,Rugerero,33080205,1014041,-1.67428,29.36004
884,Nyamugwagwa,31110604,1007389,-2.207465,29.4401
885,Muremure,31110103,1014048,-2.2357400000000003,29.48168167
886,Rwantobo,33100406,1014063,-1.7404700000000002,29.372290000000003
887,Nyakibande,33080204,1014042,-1.676,29.35857
888,Gitwa,36050401,1014016,-2.434499,28.946438
889,Muremure,31110103,1014036,-2.2408033,29.4925267
890,,,1014021,-2.542708,29.035636
891,Gatagara,36140302,1014019,-2.552118,29.007152
892,Kabugarama,36080102,1007663,-2.584342,28.971386
893,Gatondo,36140303,1014020,-2.53305,29.016558000000003
894,Honga,36140305,1014018,-2.533586,28.997215
895,Kirwano,36020302,1014024,-2.577491,29.140912
896,Munkamba,36020303,1014025,-2.566146,29.144802
897,Kabgo-Gihororo,31110202,1014035,-2.20644333,29.518888
898,Birambo,31110401,1014060,-2.21065,29.519803000000003
899,Kigarama,31120203,1014056,-2.14763,29.34468
900,Gatare,31110801,1014051,-2.164835,29.491473
901,Nyabisiga,31110803,1014070,-2.154842,29.510738300000003
902,Gahororo,31110502,1014031,-2.20900667,29.47158
903,Busesa,33100401,1014046,-1.7302400000000002,29.36502
904,Ngange,31110104,1014030,-2.230115,29.47708167
905,Isha,36050402,1014017,-2.452429,28.938735
906,Ngange,31110104,1014037,-2.23438167,29.47267167
907,Rungunga,36100109,1007662,-2.6668,29.009090000000004
908,Gashubi,31080301,1014065,-2.26958,29.42796
909,Muremure,31110103,1014038,-2.2462150000000003,29.491565
910,Dusasa,31110501,1014032,-2.2195333,29.459935
911,Ngange,31110104,1014033,-2.23241333,29.4756
912,Kanyahene,33100204,1014043,-1.72928,29.3348
913,Kaduha,31110602,1014039,-2.234305,29.436305
914,Nyakibande,33080204,1014040,-1.67323,29.36088
915,Rwamikungu,33060404,1014045,-1.63268,29.39084
916,Muremure,31110103,1014034,-2.2405167,29.491855
917,Gatovu,57130402,1014570,-2.335818,30.075542
918,Himbo,31120802,1014064,-2.1809,29.40968
919,Rwamikungu,33060404,1014044,-1.63268,29.39084
920,Kaduha,31110602,1014074,-2.22396167,29.43661833
921,Rukore,31120803,1014055,-2.17259,29.40382
922,Nyabisiga,31110803,1014049,-2.153882,29.50695300000001
923,Wamahoro,31120705,1014068,-2.14383,29.35221
924,Kagorora,31110402,1014057,-2.228383,29.51722
925,Gitwa,31110101,1014062,-2.242973,29.464718
926,Nyagasozi,31110105,1014072,-2.25545,29.47791
927,Mizingo,33060503,1014058,-1.6407200000000002,29.39906
928,Nyantwa,31120104,1014052,-2.18836,29.37793
929,Nyantwa,31120104,1014050,-2.18135,29.37769
930,Uwabashi,31080505,1014076,-2.26182,29.37822
931,Kagusa,31120101,1014054,-2.20151,29.3787
932,Kadehero,31080501,1014073,-2.24952,29.38323
933,Muvumba,31120405,1014053,-2.1886,29.37909
934,Gasharu,31080202,1014067,-2.25799,29.41381
935,Gasharu,31120601,1014069,-2.13333,29.3625
936,Murambi,31130505,1014066,-2.23068,29.38988
937,Kagorora,31110402,1014059,-2.2318830000000003,29.517175
938,Mayombo,31080304,1014061,-2.26854,29.4563
939,Nyamugwagwa,31110604,1014071,-2.20755,29.44008
940,Kagarama,31090504,1013776,-2.06165,29.39508
941,Rubona,31100104,1013782,-2.13374,29.50472
942,Cyeru,57090201,1014568,-2.10574,30.087112
943,Kibaza,57130405,1014569,-2.335418,30.05721
944,Rushwati,36020306,1014023,-2.578095,29.140707
945,Rushwati,36020306,1014022,-2.575882,29.136492
946,Antene,13050102,1014439,-1.98388889,30.13861111
947,Antene,13050102,1014440,-1.9761111,30.1425
948,Nyarubande,13090212,1014445,-1.968372,30.112113
949,Agahama,12050501,1014450,-1.849236,30.064609
950,,,1014444,-1.969082,30.115851
951,Nyakirehe,12050506,1014448,-1.836888,30.075740000000003
952,Ntasi,28050503,1014447,-2.09453,29.9943
953,Byimana,13090101,1014443,-1.988027,30.117593
954,Antene,13050102,1014441,-1.97972222,30.14083333
955,Nyamurenga,28050105,1014446,-2.14197,29.98984
956,Rwezamenyo,28080308,1014449,-2.05618,29.923990000000003
957,Mahembe,31120501,1013774,-2.1750700000000003,29.42564
958,Kabeza,31090503,1013777,-2.06358,29.39742
959,Nyarushekera,31120503,1013775,-2.16427,29.41347
960,Wurugogwe,31100906,1013783,-2.1213,29.48652
961,Bihembe-Kibe,,1013780,-2.08381,29.45655
962,Nyakabingo,31100903,1013784,-2.12557,29.48183
963,Sabununga,28080309,1014451,-2.05615,29.93258
964,Ntarabana,31020106,1013781,-2.13355,29.5053
965,Musango,31120502,1013772,-2.18591,29.43513
966,Mahembe,31120501,1013773,-2.17593,29.42192
967,Nyagasozi,31090804,1013778,-2.08015,29.4189
968,Bugoberi,31040201,1013779,-2.0924,29.44834
969,Nyagacyamu,54110205,1013828,-1.9592,30.47838
970,Vungiro,54120316,1013831,-1.94853,30.66917
971,Taba,54110307,1013830,-2.00111,30.53096
972,Ryamanyoni,54060412,1013833,-1.74678,30.50085
973,Rucaca,54060306,1013832,-1.74771,30.50005
974,Kanyinya,54080207,1013834,-1.93163,30.79019000000001
975,Kamabera,37120306,1013905,-2.365632,29.008657
976,Kabukunzi,37120305,1013904,-2.36555,29.033081
977,Nyamata,54080106,1013835,-2.04215,30.67317
978,Ngoma,54050203,1013836,-2.05688,30.59736
979,Nyacyondo,23050301,1007537,-2.62023,29.542442
980,Nkurura,45150103,1007372,-1.48547,29.99506
981,Agasharu,54110101,1013839,-2.01757,30.48546
982,Kiyovu,45140204,1012698,-1.59361,30.01151
983,Rebezo,54050204,1013837,-2.05203,30.58818
984,Agasharu,54110101,1013838,-2.0104900000000003,30.48377
985,Migera,54120105,1013840,-1.92364,30.57811
986,Kabyaza,31100202,1013785,-2.11554,29.47351
987,,,1014310,-1.873616,29.852021
988,Kadasaya,28100102,1014312,-2.041621,29.930816
989,Kibanza,28010202,1014315,-1.951433,29.878932
990,Kamabuye,28030202,1014311,-1.856669,29.838176
991,,,1007605,-1.70833,29.379722
992,Gatare,45070101,1009704,-1.44911,30.04685
993,Nyakigezi,28030204,1014309,-1.87493,29.849092
994,Mwishogwe,25170603,1007467,-2.484,29.419611100000004
995,Runono,23050204,1013612,-2.56125667,29.56492833
996,Mataba,28010403,1014316,-2.005117,29.917354
997,,,1014313,-2.056492,29.940225
998,Rusuzumiro,23040405,1007577,-2.6483056,29.4811389
999,Nyamiyaga,23110403,1013614,-2.74995333,29.62531333
1000,Gihango,23140401,1007540,-2.67791,29.59175
1001,Kintama,23040202,1013613,-2.62757667,29.43474
1002,Gatovu,28100502,1014314,-1.985042,29.951748
1003,Nyabikenke,31020107,1013786,-2.1484,29.48612
1004,Businde,23040101,1007579,-2.636655,29.47937167
1005,Businde,23040101,1007564,-2.6974722,29.4909444
1006,Nyagisenyi,23060203,1007555,-2.651346,29.43843
1007,Karanka,23060202,1007547,-2.66297667,29.44955667
1008,Mwoya,23110204,1009311,-2.77676167,29.62627167
1009,Nyagisenyi,23060203,1007562,-2.654561,29.439786
1010,Mataba-Byobo-Nyarutovu?,,1014512,-2.025878,30.360528
1011,Gaseke-Mpga?,,1014511,-2.0083450000000003,30.412562
1012,Mazimeru,23060305,1007548,-2.667,29.4581
1013,Mariba,33050202,1007604,-1.7091666,29.3777
1014,Ruhango,45130103,1009707,-1.65897,30.114
1015,Bukongi,41100201,1007645,-1.79476,29.98846
1016,Muyange,25070203,1007496,-2.43885,29.56909000000001
1017,Rukamiro,25070305,1012697,-2.424161,29.542492
1018,Gahira,25170202,1007464,-2.448025,29.4665
1019,Mwishogwe,25170603,1012696,-2.4915700000000003,29.42108
1020,Kabuga,25170303,1007479,-2.45674667,29.43966667
1021,Nyamugari,25170604,1007476,-2.4912778,29.4210278
1022,Gihinga,41050102,1007637,-1.75328,30.01969
1023,Gatwa,41140203,1007631,-1.65237,29.9201
1024,Mweya,21090106,1007522,-2.32999,29.64216
1025,Gitovu,41010303,1007649,-1.62269,29.89036
1026,Gitaba,41030301,1012540,-1.7068299999999998,29.91433
1027,Gisoro,25070401,1007488,-2.428413,29.577879
1028,Gasharu,25070301,1007490,-2.43993333,29.51594167
1029,Kamabuye,21080302,1013279,-2.45403,29.84815
1030,Ntebe,21080304,1013278,-2.45118,29.87035
1031,Nyakirambi,11020104,1014270,-1.91659,30.01887
1032,Karukina,11050103,1014268,-2.01861,30.0085
1033,Nyakirambi,25120206,1013289,-2.310138,29.602603
1034,Kigarama,25110401,1013290,-2.271943,29.514311
1035,Butara,21050202,1013274,-2.30781,29.814840000000004
1036,Kavumu,21050204,1013273,-2.30577,29.79548
1037,,,1013275,-2.2794,29.8712
1038,Nyarugunga,21020306,1013272,-2.29712,29.93744
1039,Kankima,21080202,1013268,-2.40452,29.83705
1040,,,1013270,-2.35699,29.93402
1041,Mugari,21070503,1013269,-2.33172,29.88638
1042,Kimfizi,21070102,1013276,-2.3084,29.88881
1043,Kagarama,37060104,1007325,-2.322534,29.141944
1044,Nyirangarama,41030507,1007626,-1.6688900000000002,29.89389000000001
1045,,,1009064,-1.692028,29.294444
1046,Gatare,21070402,1013271,-2.33736,29.8197
1047,Ntebe,21080304,1013277,-2.45455,29.85668
1048,Nyarusange,11020304,1014269,-1.89484,29.99693
1049,Maziba,34070703,1007451,-1.6798400000000002,29.51707
1050,,,1007339,-1.698333333,29.79861111
1051,Akatabaro,11080304,1014271,-1.982414,30.056395
1052,Rwankuba,12100204,1014273,-1.88659,30.09792
1053,Rutagara i,11020206,1014272,-1.94731,30.025352
1054,Gitenga,42040203,1012549,-1.668055556,29.80361111
1055,Gitongo,42190504,1007350,-1.704166667,29.84666667
1056,Mugunga,42010604,1007349,-1.623611111,29.70305556
1057,Kamatare,42040204,1007344,-1.6947222219999998,29.79777778
1058,,,1013288,-2.290274,29.569592
1059,Nyanza,27060602,1013263,-2.00393039,29.67555126
1060,Bamba,25050101,1013287,-2.331309,29.535533
1061,Rutenga,42010605,1007345,-1.623888889,29.71166667
1062,Mutara,42110405,1007338,-1.6905555559999998,29.81666667
1063,,,1012550,-1.6897221999999998,29.80888
1064,Butambwe,42150301,1007352,-1.699722222,29.69666667
1065,Rugeti,25170605,1007472,-2.47291333,29.42335667
1066,Kamasanze,42120301,1009553,-1.7338888890000002,29.65638889
1067,Kanaba,42120402,1007342,-1.693888889,29.64861111
1068,Gikombe,42140503,1007347,-1.781111111,29.87916667
1069,Uwabarashi,25120605,1007473,-2.21156,29.544015
1070,Bamba,25050101,1013284,-2.337125,29.525828000000004
1071,Musega,41090302,1007632,-1.8023333,30.0800278
1072,,41070301,1007643,-1.653,29.9257778
1073,,,1007426,-1.819809,29.6066111
1074,,,1010423,-2.12023,29.6893
1075,,35030404,1007427,-1.82273,29.58247
1076,Mataba,35020602,1007422,-1.93935456,29.63153625
1077,,,1010422,-2.14156,29.63501
1078,Mabanza,26070202,1007612,-2.12558,29.67786
1079,Nyenyeri,35020306,1007430,-1.92789109,29.63116618
1080,Rugeti,25170605,1007466,-2.47640667,29.4208
1081,Rweru,25060203,1013218,-2.52565,29.568185
1082,Kanserege,25160103,1013215,-2.5265,29.510023
1083,Muduha,25070302,1007491,-2.436162,29.52308
1084,Gasenge,25160301,1013217,-2.53568,29.5136
1085,Kigusa,25160302,1013214,-2.55117833,29.51450333
1086,Gitovu,25160102,1013216,-2.53163167,29.53586
1087,Kigarama,25060302,1013219,-2.500105,29.56810167
1088,,,1007489,-2.296023,29.557358
1089,Ngabira,45170305,1011330,-1.43057,30.0783
1090,Ndarama,45100102,1009706,-1.46305,30.0909
1091,Rurenge,45020210,1009715,-1.51969,30.15237
1092,Nyagakizi,45020207,1009714,-1.53328,30.1727
1093,Murambi,37130404,1014117,-2.38842,29.16833
1094,Sovu,25060204,1013225,-2.51053167,29.53582167
1095,Birembo,25070601,1007485,2.4724,29.5
1096,Gisovu,27060304,1013247,-2.01790012,29.67739076
1097,Nyamatete,27110106,1013261,-1.99297066,29.68900376
1098,Kimisange,,1013255,-1.87302569,29.67017014
1099,Nyabwoma,25160105,1013220,-2.52459333,29.54972333
1100,Kabagabo,37050204,1014159,-2.3441,29.11119
1101,Rugarama,23100104,1014149,-2.71276,29.46918
1102,Kigenge,36050606,1014155,-2.44319,28.97635
1103,Gihemvu,23100103,1014150,-2.6999,29.49195
1104,Kansi,23130103,1014152,-2.60126,29.527390000000004
1105,Kabere,37150504,1014148,-2.39624002,28.996980600000004
1106,Buhunga,23080601,1014158,-2.74006,29.67281
1107,Kabyuma,36050603,1014156,-2.44926,28.95522
1108,Karambi,36050604,1014154,-2.43675,28.95227
1109,,,1014161,-2.3468400000000003,29.11432000000001
1110,Rugarama,44040307,1013223,-1.51139,29.81161
1111,Makoko,37050207,1014113,-2.34996,29.11603
1112,Rubindi,23100304,1014115,-2.73352,29.44932
1113,Bisoro,37050201,1014112,-2.3557,29.11136
1114,Kiziba,44140306,1013222,-1.55473,29.83253
1115,Makoko,37050207,1014116,-2.34716,29.11627
1116,Bisoro,37050201,1014114,-2.3645,29.1246
1117,Nyanza,27060602,1013260,-2.01273958,29.69851613
1118,Ndaragati,27070103,1013257,-1.81917977,29.69307801
1119,Murambi,27030303,1013254,-1.8784817,29.69778352
1120,Kabeza,36050102,1014142,-2.46169,28.96475
1121,Kibakure,36050103,1014144,-2.46402,28.95182
1122,Kanombe,27060305,1013248,-2.0118896,29.68145493
1123,Cyabarenge,44120304,1013228,-1.55931,29.88196
1124,Songorero,44120105,1013236,-1.59631,29.85719000000001
1125,Burembo,36050101,1014143,-2.44613,28.96986
1126,Ngongwe,44120308,1013229,-1.59194,29.89186
1127,Mugano,44120103,1013238,-1.6070799999999998,29.85897000000001
1128,Kivumu,27060404,1013262,-1.99009157,29.667002
1129,Songorero,44120105,1013235,-1.59993,29.85702
1130,Rwkdi-Bora,,1013259,-2.01273958,29.69851613
1131,Kagarama,25060402,1013226,-2.51784,29.58812833
1132,Mugano,44120103,1013240,-1.6032,29.85826
1133,Kinyovu,25060201,1013224,-2.50159333,29.54305167
1134,Nyamusanze,44120104,1013241,-1.758679,29.8733
1135,Ryanyirataba,25060303,1013221,-2.50142333,29.555740000000004
1136,Kamiro,25060102,1013231,2.495585,29.58301667
1137,Nyamasheke,27060601,1013249,-2.03657322,29.66738107
1138,Cyuzu,27030201,1013253,-1.85356287,29.67139626
1139,Gihara,27060303,1013250,-2.0290507,29.69007869
1140,Kigeyo,44120102,1013242,-1.59526,29.87748
1141,,,1013233,-1.60834,29.8911
1142,Musama,44040105,1013227,-1.5128700000000002,29.8126
1143,Nkondo,27030206,1013256,-1.83836538,29.68433685
1144,Kigeyo,44120102,1013239,-1.5999,29.88097
1145,Gasharu,27060302,1013251,-2.02696824,29.69545811
1146,Rugaragara,45110103,1009710,-1.7012,30.20941
1147,Butunda,44120303,1013230,-1.605,29.89527
1148,Ngongwe,44120308,1013232,-1.5953700000000002,29.89217
1149,Butunda,44120303,1013234,-1.6020299999999998,29.89157
1150,Gatagara,37130302,1014120,-2.38897,29.1315
1151,Jarama,27030401,1013252,-1.83974569,29.70503476
1152,Bunyenyezi,37130402,1014119,-2.37608,29.16455
1153,Ryakiyange,27070104,1013258,-1.81408288,29.67507767
1154,Bunyenyezi,37130402,1014137,-2.36102,29.14898
1155,Rudehero,37130305,1014134,-2.37845,29.1393
1156,Gashushura,44120101,1013237,-1.61204,29.862990000000003
1157,Rugombo,36050303,1014139,-2.46906,28.95562
1158,Remera,45190305,1009703,-1.60178,30.15318
1159,Karambo,36050301,1014140,-2.45575,28.97641
1160,Gitaba,41030301,1007638,-1.7067778000000002,29.914361100000004
1161,Bizenga,37060101,1014138,-2.33616,29.1422
1162,Remera,25120603,1007469,-2.213863,29.563708
1163,Nyakabingo,25050504,1013285,-2.37564,29.490052
1164,Gatwa,25100201,1007481,-2.364085,29.553359000000004
1165,Kanyege,25050403,1013281,-2.363741,29.544103000000003
1166,Murehe,25120503,1007497,-2.265518,29.585978000000004
1167,Nyakabuye,25120105,1007495,-2.233574,29.575366
1168,Gitega,25050105,1013283,-2.335233,29.499042
1169,Gasagara,25120401,1007498,-2.286972,29.607523
1170,Mataba,27040201,1007401,-1.9014444,29.76391670000001
1171,Gaseke-Nyagasozi,,1007425,-1.82487,29.61382
1172,Mucyamo,27020805,1007398,-1.9643,29.76213
1173,Nyamitanga,27050105,1007400,-2.07322294,29.71500053
1174,,,1007423,-1.80202,29.64597
1175,Gitega,25020104,1007505,-2.280226,29.603769
1176,Cyugaro,25050501,1013286,-2.37027,29.484132
1177,Nyakabuye,25120105,1007507,-2.2333694,29.575727
1178,Rwankango,25120504,1007483,-2.259663,29.592431
1179,Nyagatovu,41060106,1012798,-1.63296,29.93438
1180,Gakomeye,26070302,1010427,-2.12117,29.6109
1181,Gaseke,26070802,1010411,-2.16658,29.70104000000001
1182,Gasagara,25120401,1013282,-2.28862,29.604975
1183,Nama,34090504,1007449,-1.6798,29.51732
1184,,,1007679,-1.954166,29.3577
1185,Cyumba,42080204,1007360,-1.627777777,29.84055556
1186,Ruhondo,31040707,1013549,-2.12657,29.45745
1187,Kamihaho,31040203,1013550,-2.108,29.44281
1188,Gatomvu,32020402,1007676,-1.96638,29.35777
1189,Nyarukeri,31040103,1013548,-2.14404,29.43463
1190,Gateko,33120704,1012811,-1.696388,29.273055
1191,Nyarusange,31040404,1013552,-2.11217,29.41652
1192,Kabiraho,32100102,1012812,-1.974166,29.3933
1193,Mugote,25010103,1007484,-2.47437333,29.488816
1194,Shaki,25130504,1007487,-2.391707,29.43570900000001
1195,Nyagisumo,25140204,1007493,-2.337289,29.459825
1196,,,1007468,-2.287455,29.434438
1197,Gatiti,25130203,1012816,-2.34152,29.466329
1198,,,1007474,-2.2875833,29.4333889
1199,Nyakabingo,25140205,1007492,-2.2983290000000003,29.459225
1200,Gikungu,25040301,1007480,-2.395728,29.427631
1201,,,1007502,-2.321754,29.44854
1202,Nyagisumo,25140204,1012820,-2.332691,29.466929
1203,Rugano,25130305,1012819,-2.367013,29.437399
1204,Bweramana,25140301,1012818,-2.31818,29.425777000000004
1205,Gitikirema,25140203,1012817,-2.3046740000000003,29.472585
1206,Bisyo,32100101,1012813,-1.985833,29.40916
1207,Kabiraho,32100102,1012814,-1.9775,29.385
1208,Murunda,32070204,1007673,-1.915,29.37083
1209,Nyarusange,32100404,1012815,-1.9955,29.3925
1210,Gasharu,31040101,1013542,-2.13809,29.4254
1211,Kirambo,31040403,1013551,-2.11251,29.41945
1212,Gitaba,35040101,1013547,-1.77412,29.57416
1213,Buhuma,35060101,1013540,-1.82053,29.547590000000003
1214,Kamihaho,31040203,1013555,-2.09757,29.4337
1215,Kirambo,31040403,1013545,-2.11248,29.42269000000001
1216,Gisebeya,35080401,1013541,-1.81792,29.54411
1217,Nyamiyaga,31040705,1013544,-2.1067,29.42296
1218,Nyanza-Kamajanga,35040305,1013539,-1.74082,29.53777
1219,Gahigiro,31040501,1013543,-2.10774,29.42038
1220,Gasharu,31040101,1013546,-2.12787,29.43396
1221,Nyarubuye,31040706,1013553,-2.1158900000000003,29.4245
1222,Nemba,31040303,1013554,-2.09586,29.3907
1223,Bwingeyo,54040303,1013619,-1.93923,30.46986
1224,Mburabuturo,54040306,1013620,-1.90822,30.4727
1225,Nyangandika,26090110,1007607,-2.18495,29.80927
1226,Kagogo,32120403,1013662,-1.90122,29.370490000000004
1227,Nyakagezi,42120104,1013627,-1.68267,29.67093
1228,Kinihira,54120405,1013621,-1.95182,30.59996
1229,Burambo,32030101,1013638,-1.80494,29.30232
1230,Nyundo,32120306,1013663,1.87696,29.3724
1231,Murengeri,32130104,1013629,-1.92009,29.46229000000001
1232,Kaboneye,32090403,1013655,-1.84493,29.34447
1233,Kinihira,54120405,1013622,-1.95152,30.59912000000001
1234,Rutare,32050211,1013643,-1.91805,29.43911
1235,Gasakuza,42010203,1013684,-1.61659,29.7064
1236,Mujebeshi,32050206,1013630,-1.92623,29.44603
1237,Mwurire,32120105,1007670,-1.89155,29.38262000000001
1238,Gisiza,32030105,1013637,-1.81635,29.29171
1239,Rubaga,42010205,1013685,-1.62252,29.70826
1240,Gisiza,32010301,1013624,-1.92376,29.32233
1241,Bushita,42050502,1013678,-1.6634400000000005,29.83439000000001
1242,Ruhengeri,32090410,1013633,-1.88027,29.34277
1243,Kariba,32090305,1013659,-1.8777,29.3219444
1244,Gasovu,32120101,1007664,-1.89261,29.3735
1245,,,1013689,-1.66377,29.80285
1246,Kamaranzara,32090105,1013648,-1.83944,29.3222
1247,Kabuhoro,42120504,1013682,-1.68267,29.67093
1248,Ngambi,42190703,1013679,-1.76435,29.8756
1249,Bukunga,42080302,1013690,-1.63772,29.81581
1250,,,1013666,-1.6473799999999998,29.80296
1251,Cyahafi,42160401,1013670,-1.63647,29.78962000000001
1252,Burambo,32040301,1013625,-1.7631400000000002,29.30402
1253,Mukebera,32020203,1013646,-1.9775,29.381944
1254,Kirinja,32120104,1013631,-1.87014,29.37139
1255,Gakeri,32120301,1013664,-1.85645,29.36927
1256,Nyakarambi,32050208,1013644,-1.90752,29.44373
1257,Kaboneye,32090403,1013656,-1.85047,29.33792
1258,Bugarishya,32040602,1013642,-1.8011,29.31405
1259,Kabahigi,32060101,1007665,-2.03645,29.41441
1260,Museke,42040409,1013673,-1.65647,29.79743
1261,Mbogo,42020205,1013671,-1.79797,29.80379000000001
1262,Kagano,32090404,1013635,-1.876944,29.348055
1263,Murambi,42020206,1013681,-1.79831,29.83496
1264,Kiryamo,42160407,1013668,-1.61697,29.79172
1265,Ruhengeri,32090410,1013634,-1.880833,29.341388
1266,Rugote,32100106,1013645,-1.99666,29.3952777
1267,Miraramo,32060103,1007678,-2.02475,29.41743
1268,Bushunga,32090102,1013658,-1.8675,29.324166
1269,Kibara,32130102,1007674,-1.92899,29.4801
1270,Gisiza,32030105,1013636,-1.81695,29.29326
1271,Buzukira,32090103,1013651,-1.855,29.31
1272,Gakomeye,32090301,1013660,-1.87722,29.319444
1273,Kirwa,42010204,1013683,-1.61152,29.70026
1274,,,1013628,-1.6992200000000002,29.63391
1275,Masoro,42050104,1013676,-1.62306,29.86773
1276,Burambo,32040301,1013626,-1.7628,29.30777
1277,Kiruhura,42160406,1013672,-1.62126,29.78084
1278,Maziba,32090205,1013654,-1.85437,29.28597
1279,Gakenke,32090202,1013652,-1.86777,29.289722
1280,Gihinga,32080203,1013632,-1.93229,29.36963
1281,Karengera,32090106,1013649,-1.85333,29.320833
1282,Miraramo,32060103,1013688,-2.0312,29.39964
1283,Nganzo,32030407,1013639,-1.80495,29.30452
1284,Rwinyoni,32040607,1013641,-1.80169,29.29776
1285,,,1013640,-1.8054,29.29628
1286,Nkwiro,32020205,1013647,-1.9752777,29.381944
1287,Cyondo,32090201,1013650,-1.8577,29.3111
1288,Gasovu,32120101,1007666,-1.89091,29.37094
1289,Rurimba,32090108,1013657,-1.84792,29.33218
1290,Kabahigi,32060101,1013661,-2.03972,29.41906
1291,Munyege,42160408,1013669,-1.6141299999999998,29.79371
1292,Kajereri,42010402,1013687,-1.63957,29.71774000000001
1293,Kabushara,42160302,1013667,-1.6279,29.79311
1294,Gihanga,42050504,1013677,-1.66137,29.84701
1295,Mukati,32090407,1013674,-1.86618,29.33919
1296,Kivumu,32090204,1013653,-1.85666,29.290277000000003
1297,Kanteko,42050506,1013675,-1.64821,29.85487
1298,Rebero,32080407,1013680,-1.94498,29.34985
1299,Rugendabari,42010206,1013686,-1.61835,29.7302
1300,Nyabigugu,42080308,1013691,-1.62681,29.80387
1301,,37080504,1007515,-2.19761,29.277965
1302,Kigandi,37100505,1013692,-2.326002,29.165331
1303,Nyarushubi,35120105,1013453,-2.03409,29.63099
1304,Mbobo,35120405,1013451,-2.0283900000000004,29.572740000000003
1305,Muganza,35120303,1013450,-2.04927,29.5796
1306,Gaseke,35120203,1013454,-2.08128,29.61731
1307,Rutonde,35100108,1013452,-1.98911,29.60512
1308,Gasharu,35100201,1013455,-2.00323,29.5765
1309,Kurushishi,35010403,1013457,-1.94955,29.56793
1310,Cyahafi,35010202,1013456,-1.92556,29.60749
1311,Bereshi,35010401,1013458,-1.96626,29.57464
1312,Ruganda,35130305,1013459,-1.96038,29.54036
1313,Bitaba,35130301,1013460,-1.95373,29.54198
1314,Gasiza,35130601,1013461,-1.94216,29.55835
1315,Ubumwe,11010305,1014254,-1.966149,30.05606
1316,Isangano,52070502,1014252,-1.42013,30.26972
1317,Rugari,11010608,1014261,-1.9517,30.052540000000004
1318,Nyakagenge,52070103,1014248,-1.46111,30.23321
1319,Nyabirondo,11050605,1014264,-2.0543400000000003,30.04781
1320,Gitwe,52070302,1014244,-1.45106,30.20714000000001
1321,Ubumwe,52070505,1007457,-1.42439,30.26354000000001
1322,Giheta,28060203,1014274,-2.06966,29.84335
1323,Rubungo,11050405,1014266,-2.072995,30.016687
1324,Rugarama,28060204,1014275,-2.05318,29.86879
1325,Iterambere,11010103,1014263,-1.94544,30.05341
1326,Mpazi,11010606,1014262,-1.95291,30.0532
1327,,,1014242,-1.96302,30.05622
1328,Gishenyi,52020304,1014255,-1.3683,30.17181
1329,Mbari,28060302,1014279,-2.05153,29.83695
1330,,,1014260,-1.29792,30.55167
1331,Nyamiyaga,28080304,1014282,-2.0979400000000004,29.93278
1332,Ngarama,28090506,1014295,-2.0661400000000003,29.827340000000003
1333,Kibisabo,52010105,1014253,-1.42836,30.1828
1334,Nyarubuye,11050207,1014267,-2.04925,29.98573
1335,,,1014283,-2.0851,29.80891
1336,Amahoro,52070501,1014249,-1.43877,30.25549
1337,Ubumwe,52070505,1014250,-1.43737,30.2538
1338,Kanyami,52020603,1014243,-1.36537,30.17092
1339,Isangano,52070502,1014251,-1.4216,30.27098
1340,Rugarama,28090305,1014293,-2.10933,29.84766
1341,Kiranzi,28080301,1014285,-2.05255,29.89237
1342,Gitega,28090503,1014296,-2.08032,29.822
1343,Mpanga,11050702,1014265,-2.0638,30.0279
1344,Katoma,52050506,1014246,-1.44263,30.15516
1345,Mpazi,11010205,1014256,-1.95435,30.054
1346,Burera,52040802,1014247,-1.52911,30.30129
1347,Rugano,11010607,1014259,-1.94354,30.05083
1348,Karubanda,28080102,1014281,-2.08084,29.91191
1349,Ruhuha,28090205,1014291,-2.06986,29.860840000000003
1350,Kora,11010605,1014258,-1.94934,30.05571
1351,Ituze,11010204,1014257,-1.95322,30.0552
1352,Gacaca,28060202,1014276,-2.0392200000000003,29.84801
1353,Karubanda,28080102,1014297,-2.07748,29.90302
1354,Nyamiyaga,28080304,1014286,-2.065,29.91408
1355,Kababanda,52020602,1014245,-1.35292,30.144
1356,,,1014290,-2.06667,29.87094
1357,Kingoma,28060504,1014277,-2.03693,29.83341
1358,Kigabiro,28080204,1014298,-2.08375,29.9012
1359,Kabungo,28090201,1014288,-2.0829,29.88202
1360,Ruhuha,28090205,1014289,-2.07133,29.87194
1361,,,1014278,-2.02057,29.80686
1362,Nkoto,28080207,1014287,-2.05616,29.90943
1363,,,1014284,-2.08488,29.81828
1364,,,1014292,-2.10672,29.86075
1365,Rugarama,28090305,1014294,-2.10176,29.84282
1366,,,1014280,-2.0264,29.85626
1367,Nkondo i,54120408,1013693,-1.9314,30.60922
1368,Bisayu i,44160301,1013694,-1.46159,29.82579
1369,Ngundu,44160308,1013695,-1.45343,29.85064
1370,Gabiro,23010402,1009313,-2.77142,29.529766
1371,Ndatemwa,23010303,1007592,-2.78607,29.53833
1372,Murori,54070202,1013697,-1.91118,30.56047
1373,Serugeme,26030506,1012480,-2.228055556,29.57333333
1374,Uwinteko,23010506,1007532,-2.761531,29.494368
1375,Kazeneza,54020204,1013706,-2.06686,30.62524
1376,Rwamiko,37100415,1013699,-2.286079,29.17952
1377,Gasarabwayi,54070301,1007393,-1.90503,30.60191
1378,Rwabarema,54020109,1013705,-1.96456,30.66115
1379,Kabeza,54070302,1013704,-1.89013,30.611390000000004
1380,Kanyenkondo,37100202,1013703,-2.288204,29.197543
1381,Rumamfu,37100308,1013702,-2.337668,29.186374
1382,Karamba,37100203,1007521,-2.2842990000000003,29.196849
1383,Karamba,37100203,1007508,-2.280762,29.206295
1384,Gacumbi,37090302,1013567,-2.26295,29.189909000000004
1385,Musumba,37100304,1007518,-2.313353,29.214397
1386,Kageyo,37070503,1013558,-2.332639,29.249679
1387,Ruzibira,37070507,1013559,-2.324086,29.237155
1388,Wimana,37100111,1013563,-2.3047470000000003,29.219334000000003
1389,Murambi,37070106,1013564,-2.311176,29.239786
1390,Mugohe,37070305,1013560,-2.316496,29.218564
1391,Giti,37070201,1013561,-2.2933630000000003,29.238419
1392,Bitare,37070101,1013562,-2.3235330000000003,29.254731
1393,Rubona,37070408,1013569,-2.301919,29.242738
1394,Bitare,37070101,1013565,-2.322038,29.247239
1395,Nyakabingo,37090307,1013568,-2.279466,29.199971
1396,Gitwa,37090102,1007509,-2.275825,29.217288
1397,Nyabinaga,37090405,1013566,-2.251326,29.21786
1398,Karamba,37100203,1007520,-2.2825450000000003,29.208913
1399,Kansi-Cyansi,,1012546,-1.88360333,29.62528667
1400,Kazabe,35110203,1007432,-1.85795617,29.62374517
1401,Ryabugenge,53030408,1014532,-1.6575400000000002,30.2992
1402,Ryabugenge,53030408,1014533,-1.65055,30.30473
1403,Gahama,53030405,1014534,-1.665,30.29284
1404,Nyakabungo,53110605,1014535,-1.57761,30.20642
1405,Kiyovu,51020706,1014538,-1.8953,30.30129
1406,Burembo,53110601,1014536,-1.59976,30.20891
1407,Nyaruhoko,28120404,1014334,-1.969472,29.959591
1408,Butumba,53110602,1014537,-1.60164,30.19772
1409,Karama,51100205,1014542,-1.99723,30.24595
1410,Nyamabuye,28110304,1014336,-1.931734,29.894059
1411,Mikamba,28050304,1014339,-2.126854,29.946166
1412,Kirehe,51010303,1014539,-1.88269,30.26579000000001
1413,Bikimba,28120101,1014338,-1.943021,29.982635
1414,Muza,28030302,1014335,-1.926209,29.8142
1415,Kireka,28050402,1014337,-2.119285,29.997436
1416,Kibaza,51010302,1014540,-1.86879,30.28184000000001
1417,Rususa,51120309,1014541,-2.01494,30.2304
1418,,,1014340,-2.362459,30.642264
1419,,51120104,1014543,-2.04377,30.29442
1420,Gashonyi,35090202,1012543,-1.88597,29.65868
1421,Gasovu,35090203,1012544,-1.88597,29.651
1422,Cyanya,55030101,1014452,-2.02057,29.80686
